[
  {
    "id": "116",
    "name": "Sydney - Blacktown",
    "state_code": "NSW",
    "type": "sa4",
    "opportunity_score": 74,
    "centroid_lat": -33.734,
    "centroid_lng": 150.8635
  },
  {
    "id": "121",
    "name": "Sydney - North Sydney and Hornsby",
    "state_code": "NSW",
    "type": "sa4",
    "opportunity_score": 74,
    "centroid_lat": -33.6805,
    "centroid_lng": 151.1635
  },
  {
    "id": "122",
    "name": "Sydney - Northern Beaches",
    "state_code": "NSW",
    "type": "sa4",
    "opportunity_score": 73,
    "centroid_lat": -33.698,
    "centroid_lng": 151.252
  },
  {
    "id": "115",
    "name": "Sydney - Baulkham Hills and Hawkesbury",
    "state_code": "NSW",
    "type": "sa4",
    "opportunity_score": 71,
    "centroid_lat": -33.384,
    "centroid_lng": 150.7565
  },
  {
    "id": "208",
    "name": "Melbourne - Inner South",
    "state_code": "VIC",
    "type": "sa4",
    "opportunity_score": 71,
    "centroid_lat": -37.961,
    "centroid_lng": 145.0705
  },
  {
    "id": "207",
    "name": "Melbourne - Inner East",
    "state_code": "VIC",
    "type": "sa4",
    "opportunity_score": 70,
    "centroid_lat": -37.8055,
    "centroid_lng": 145.0915
  },
  {
    "id": "304",
    "name": "Brisbane - West",
    "state_code": "QLD",
    "type": "sa4",
    "opportunity_score": 70,
    "centroid_lat": -27.497,
    "centroid_lng": 152.9095
  },
  {
    "id": "128",
    "name": "Sydney - Sutherland",
    "state_code": "NSW",
    "type": "sa4",
    "opportunity_score": 69,
    "centroid_lat": -34.0755,
    "centroid_lng": 151.0825
  },
  {
    "id": "118",
    "name": "Sydney - Eastern Suburbs",
    "state_code": "NSW",
    "type": "sa4",
    "opportunity_score": 68,
    "centroid_lat": -33.9175,
    "centroid_lng": 151.2485
  },
  {
    "id": "126",
    "name": "Sydney - Ryde",
    "state_code": "NSW",
    "type": "sa4",
    "opportunity_score": 68,
    "centroid_lat": -33.78,
    "centroid_lng": 151.109
  },
  {
    "id": "303",
    "name": "Brisbane - South",
    "state_code": "QLD",
    "type": "sa4",
    "opportunity_score": 68,
    "centroid_lat": -27.559,
    "centroid_lng": 153.0805
  },
  {
    "id": "503",
    "name": "Perth - Inner",
    "state_code": "WA",
    "type": "sa4",
    "opportunity_score": 67,
    "centroid_lat": -31.965,
    "centroid_lng": 115.822
  },
  {
    "id": "120",
    "name": "Sydney - Inner West",
    "state_code": "NSW",
    "type": "sa4",
    "opportunity_score": 66,
    "centroid_lat": -33.867,
    "centroid_lng": 151.127
  },
  {
    "id": "302",
    "name": "Brisbane - North",
    "state_code": "QLD",
    "type": "sa4",
    "opportunity_score": 65,
    "centroid_lat": -27.3605,
    "centroid_lng": 153.068
  },
  {
    "id": "507",
    "name": "Perth - South West",
    "state_code": "WA",
    "type": "sa4",
    "opportunity_score": 64,
    "centroid_lat": -32.222,
    "centroid_lng": 115.683
  },
  {
    "id": "505",
    "name": "Perth - North West",
    "state_code": "WA",
    "type": "sa4",
    "opportunity_score": 63,
    "centroid_lat": -31.6925,
    "centroid_lng": 115.7305
  },
  {
    "id": "801",
    "name": "Australian Capital Territory",
    "state_code": "ACT",
    "type": "sa4",
    "opportunity_score": 63,
    "centroid_lat": -35.5235,
    "centroid_lng": 149.081
  },
  {
    "id": "119",
    "name": "Sydney - Inner South West",
    "state_code": "NSW",
    "type": "sa4",
    "opportunity_score": 62,
    "centroid_lat": -33.944,
    "centroid_lng": 151.067
  },
  {
    "id": "211",
    "name": "Melbourne - Outer East",
    "state_code": "VIC",
    "type": "sa4",
    "opportunity_score": 62,
    "centroid_lat": -37.7505,
    "centroid_lng": 145.5175
  },
  {
    "id": "213",
    "name": "Melbourne - West",
    "state_code": "VIC",
    "type": "sa4",
    "opportunity_score": 62,
    "centroid_lat": -37.774,
    "centroid_lng": 144.6255
  },
  {
    "id": "314",
    "name": "Moreton Bay - South",
    "state_code": "QLD",
    "type": "sa4",
    "opportunity_score": 62,
    "centroid_lat": -27.254,
    "centroid_lng": 152.88
  },
  {
    "id": "123",
    "name": "Sydney - Outer South West",
    "state_code": "NSW",
    "type": "sa4",
    "opportunity_score": 61,
    "centroid_lat": -34.136,
    "centroid_lng": 150.708
  },
  {
    "id": "125",
    "name": "Sydney - Parramatta",
    "state_code": "NSW",
    "type": "sa4",
    "opportunity_score": 61,
    "centroid_lat": -33.83,
    "centroid_lng": 150.998
  },
  {
    "id": "127",
    "name": "Sydney - South West",
    "state_code": "NSW",
    "type": "sa4",
    "opportunity_score": 61,
    "centroid_lat": -33.936,
    "centroid_lng": 150.8065
  },
  {
    "id": "301",
    "name": "Brisbane - East",
    "state_code": "QLD",
    "type": "sa4",
    "opportunity_score": 61,
    "centroid_lat": -27.531,
    "centroid_lng": 153.318
  },
  {
    "id": "305",
    "name": "Brisbane Inner City",
    "state_code": "QLD",
    "type": "sa4",
    "opportunity_score": 61,
    "centroid_lat": -27.4505,
    "centroid_lng": 153.024
  },
  {
    "id": "209",
    "name": "Melbourne - North East",
    "state_code": "VIC",
    "type": "sa4",
    "opportunity_score": 60,
    "centroid_lat": -37.5235,
    "centroid_lng": 145.227
  },
  {
    "id": "212",
    "name": "Melbourne - South East",
    "state_code": "VIC",
    "type": "sa4",
    "opportunity_score": 60,
    "centroid_lat": -38.0925,
    "centroid_lng": 145.4225
  },
  {
    "id": "404",
    "name": "Adelaide - West",
    "state_code": "SA",
    "type": "sa4",
    "opportunity_score": 60,
    "centroid_lat": -34.865,
    "centroid_lng": 138.532
  },
  {
    "id": "210",
    "name": "Melbourne - North West",
    "state_code": "VIC",
    "type": "sa4",
    "opportunity_score": 59,
    "centroid_lat": -37.4755,
    "centroid_lng": 144.7205
  },
  {
    "id": "504",
    "name": "Perth - North East",
    "state_code": "WA",
    "type": "sa4",
    "opportunity_score": 58,
    "centroid_lat": -31.83,
    "centroid_lng": 116.146
  },
  {
    "id": "124",
    "name": "Sydney - Outer West and Blue Mountains",
    "state_code": "NSW",
    "type": "sa4",
    "opportunity_score": 57,
    "centroid_lat": -33.8965,
    "centroid_lng": 150.4065
  },
  {
    "id": "506",
    "name": "Perth - South East",
    "state_code": "WA",
    "type": "sa4",
    "opportunity_score": 57,
    "centroid_lat": -32.1985,
    "centroid_lng": 116.094
  },
  {
    "id": "510",
    "name": "Western Australia - Outback (North)",
    "state_code": "WA",
    "type": "sa4",
    "opportunity_score": 57,
    "centroid_lat": -18.7885,
    "centroid_lng": 121.6535
  },
  {
    "id": "701",
    "name": "Darwin",
    "state_code": "NT",
    "type": "sa4",
    "opportunity_score": 57,
    "centroid_lat": -12.4315,
    "centroid_lng": 131.106
  },
  {
    "id": "111",
    "name": "Newcastle and Lake Macquarie",
    "state_code": "NSW",
    "type": "sa4",
    "opportunity_score": 56,
    "centroid_lat": -32.9915,
    "centroid_lng": 151.6045
  },
  {
    "id": "117",
    "name": "Sydney - City and Inner South",
    "state_code": "NSW",
    "type": "sa4",
    "opportunity_score": 56,
    "centroid_lat": -33.918,
    "centroid_lng": 151.187
  },
  {
    "id": "206",
    "name": "Melbourne - Inner",
    "state_code": "VIC",
    "type": "sa4",
    "opportunity_score": 56,
    "centroid_lat": -37.813,
    "centroid_lng": 144.967
  },
  {
    "id": "214",
    "name": "Mornington Peninsula",
    "state_code": "VIC",
    "type": "sa4",
    "opportunity_score": 56,
    "centroid_lat": -38.286,
    "centroid_lng": 144.957
  },
  {
    "id": "403",
    "name": "Adelaide - South",
    "state_code": "SA",
    "type": "sa4",
    "opportunity_score": 56,
    "centroid_lat": -35.154,
    "centroid_lng": 138.5775
  },
  {
    "id": "401",
    "name": "Adelaide - Central and Hills",
    "state_code": "SA",
    "type": "sa4",
    "opportunity_score": 55,
    "centroid_lat": -34.962,
    "centroid_lng": 138.8085
  },
  {
    "id": "107",
    "name": "Illawarra",
    "state_code": "NSW",
    "type": "sa4",
    "opportunity_score": 54,
    "centroid_lat": -34.4425,
    "centroid_lng": 150.797
  },
  {
    "id": "203",
    "name": "Geelong",
    "state_code": "VIC",
    "type": "sa4",
    "opportunity_score": 54,
    "centroid_lat": -38.1785,
    "centroid_lng": 144.171
  },
  {
    "id": "312",
    "name": "Mackay - Isaac - Whitsunday",
    "state_code": "QLD",
    "type": "sa4",
    "opportunity_score": 54,
    "centroid_lat": -21.629,
    "centroid_lng": 148.2365
  },
  {
    "id": "402",
    "name": "Adelaide - North",
    "state_code": "SA",
    "type": "sa4",
    "opportunity_score": 54,
    "centroid_lat": -34.696,
    "centroid_lng": 138.642
  },
  {
    "id": "310",
    "name": "Ipswich",
    "state_code": "QLD",
    "type": "sa4",
    "opportunity_score": 53,
    "centroid_lat": -27.665,
    "centroid_lng": 152.566
  },
  {
    "id": "311",
    "name": "Logan - Beaudesert",
    "state_code": "QLD",
    "type": "sa4",
    "opportunity_score": 53,
    "centroid_lat": -27.9755,
    "centroid_lng": 152.969
  },
  {
    "id": "102",
    "name": "Central Coast",
    "state_code": "NSW",
    "type": "sa4",
    "opportunity_score": 52,
    "centroid_lat": -33.3075,
    "centroid_lng": 151.3075
  },
  {
    "id": "106",
    "name": "Hunter Valley exc Newcastle",
    "state_code": "NSW",
    "type": "sa4",
    "opportunity_score": 52,
    "centroid_lat": -32.35,
    "centroid_lng": 151.0655
  },
  {
    "id": "308",
    "name": "Central Queensland",
    "state_code": "QLD",
    "type": "sa4",
    "opportunity_score": 52,
    "centroid_lat": -23.9405,
    "centroid_lng": 149.645
  },
  {
    "id": "309",
    "name": "Gold Coast",
    "state_code": "QLD",
    "type": "sa4",
    "opportunity_score": 52,
    "centroid_lat": -28.025,
    "centroid_lng": 153.28
  },
  {
    "id": "511",
    "name": "Western Australia - Outback (South)",
    "state_code": "WA",
    "type": "sa4",
    "opportunity_score": 52,
    "centroid_lat": -28.1295,
    "centroid_lng": 120.962
  },
  {
    "id": "601",
    "name": "Hobart",
    "state_code": "TAS",
    "type": "sa4",
    "opportunity_score": 52,
    "centroid_lat": -42.888,
    "centroid_lng": 147.4835
  },
  {
    "id": "101",
    "name": "Capital Region",
    "state_code": "NSW",
    "type": "sa4",
    "opportunity_score": 51,
    "centroid_lat": -35.6965,
    "centroid_lng": 149.045
  },
  {
    "id": "202",
    "name": "Bendigo",
    "state_code": "VIC",
    "type": "sa4",
    "opportunity_score": 51,
    "centroid_lat": -36.6825,
    "centroid_lng": 144.0845
  },
  {
    "id": "316",
    "name": "Sunshine Coast",
    "state_code": "QLD",
    "type": "sa4",
    "opportunity_score": 51,
    "centroid_lat": -26.561,
    "centroid_lng": 152.851
  },
  {
    "id": "397",
    "name": "Migratory - Offshore - Shipping (Qld)",
    "state_code": "QLD",
    "type": "sa4",
    "opportunity_score": 51,
    "centroid_lat": 0,
    "centroid_lng": 0
  },
  {
    "id": "501",
    "name": "Bunbury",
    "state_code": "WA",
    "type": "sa4",
    "opportunity_score": 51,
    "centroid_lat": -33.9125,
    "centroid_lng": 115.916
  },
  {
    "id": "103",
    "name": "Central West",
    "state_code": "NSW",
    "type": "sa4",
    "opportunity_score": 50,
    "centroid_lat": -33.048,
    "centroid_lng": 148.337
  },
  {
    "id": "113",
    "name": "Riverina",
    "state_code": "NSW",
    "type": "sa4",
    "opportunity_score": 50,
    "centroid_lat": -34.7385,
    "centroid_lng": 146.8285
  },
  {
    "id": "318",
    "name": "Townsville",
    "state_code": "QLD",
    "type": "sa4",
    "opportunity_score": 50,
    "centroid_lat": -20.2095,
    "centroid_lng": 145.974
  },
  {
    "id": "201",
    "name": "Ballarat",
    "state_code": "VIC",
    "type": "sa4",
    "opportunity_score": 49,
    "centroid_lat": -37.3435,
    "centroid_lng": 143.775
  },
  {
    "id": "204",
    "name": "Hume",
    "state_code": "VIC",
    "type": "sa4",
    "opportunity_score": 49,
    "centroid_lat": -36.8795,
    "centroid_lng": 146.3755
  },
  {
    "id": "217",
    "name": "Warrnambool and South West",
    "state_code": "VIC",
    "type": "sa4",
    "opportunity_score": 49,
    "centroid_lat": -37.9725,
    "centroid_lng": 142.456
  },
  {
    "id": "317",
    "name": "Toowoomba",
    "state_code": "QLD",
    "type": "sa4",
    "opportunity_score": 49,
    "centroid_lat": -27.6595,
    "centroid_lng": 152.0745
  },
  {
    "id": "105",
    "name": "Far West and Orana",
    "state_code": "NSW",
    "type": "sa4",
    "opportunity_score": 48,
    "centroid_lat": -31.183,
    "centroid_lng": 145.555
  },
  {
    "id": "114",
    "name": "Southern Highlands and Shoalhaven",
    "state_code": "NSW",
    "type": "sa4",
    "opportunity_score": 48,
    "centroid_lat": -34.8905,
    "centroid_lng": 150.4135
  },
  {
    "id": "205",
    "name": "Latrobe - Gippsland",
    "state_code": "VIC",
    "type": "sa4",
    "opportunity_score": 48,
    "centroid_lat": -37.8855,
    "centroid_lng": 147.543
  },
  {
    "id": "216",
    "name": "Shepparton",
    "state_code": "VIC",
    "type": "sa4",
    "opportunity_score": 48,
    "centroid_lat": -36.2825,
    "centroid_lng": 145.252
  },
  {
    "id": "509",
    "name": "Western Australia - Wheat Belt",
    "state_code": "WA",
    "type": "sa4",
    "opportunity_score": 48,
    "centroid_lat": -32.402,
    "centroid_lng": 117.776
  },
  {
    "id": "109",
    "name": "Murray",
    "state_code": "NSW",
    "type": "sa4",
    "opportunity_score": 47,
    "centroid_lat": -34.4395,
    "centroid_lng": 144.4095
  },
  {
    "id": "110",
    "name": "New England and North West",
    "state_code": "NSW",
    "type": "sa4",
    "opportunity_score": 47,
    "centroid_lat": -30.0535,
    "centroid_lng": 150.652
  },
  {
    "id": "215",
    "name": "North West",
    "state_code": "VIC",
    "type": "sa4",
    "opportunity_score": 47,
    "centroid_lat": -35.909,
    "centroid_lng": 142.6905
  },
  {
    "id": "306",
    "name": "Cairns",
    "state_code": "QLD",
    "type": "sa4",
    "opportunity_score": 47,
    "centroid_lat": -17.2405,
    "centroid_lng": 145.5495
  },
  {
    "id": "313",
    "name": "Moreton Bay - North",
    "state_code": "QLD",
    "type": "sa4",
    "opportunity_score": 47,
    "centroid_lat": -26.9085,
    "centroid_lng": 152.7715
  },
  {
    "id": "315",
    "name": "Queensland - Outback",
    "state_code": "QLD",
    "type": "sa4",
    "opportunity_score": 47,
    "centroid_lat": -19.0705,
    "centroid_lng": 142.975
  },
  {
    "id": "502",
    "name": "Mandurah",
    "state_code": "WA",
    "type": "sa4",
    "opportunity_score": 47,
    "centroid_lat": -32.6235,
    "centroid_lng": 115.8195
  },
  {
    "id": "603",
    "name": "South East",
    "state_code": "TAS",
    "type": "sa4",
    "opportunity_score": 47,
    "centroid_lat": -42.72,
    "centroid_lng": 147.096
  },
  {
    "id": "112",
    "name": "Richmond - Tweed",
    "state_code": "NSW",
    "type": "sa4",
    "opportunity_score": 46,
    "centroid_lat": -28.7495,
    "centroid_lng": 153.0065
  },
  {
    "id": "307",
    "name": "Darling Downs - Maranoa",
    "state_code": "QLD",
    "type": "sa4",
    "opportunity_score": 46,
    "centroid_lat": -27.03,
    "centroid_lng": 149.678
  },
  {
    "id": "405",
    "name": "Barossa - Yorke - Mid North",
    "state_code": "SA",
    "type": "sa4",
    "opportunity_score": 46,
    "centroid_lat": -33.747,
    "centroid_lng": 137.899
  },
  {
    "id": "602",
    "name": "Launceston and North East",
    "state_code": "TAS",
    "type": "sa4",
    "opportunity_score": 46,
    "centroid_lat": -40.7415,
    "centroid_lng": 147.225
  },
  {
    "id": "604",
    "name": "West and North West",
    "state_code": "TAS",
    "type": "sa4",
    "opportunity_score": 46,
    "centroid_lat": -41.451,
    "centroid_lng": 145.2905
  },
  {
    "id": "702",
    "name": "Northern Territory - Outback",
    "state_code": "NT",
    "type": "sa4",
    "opportunity_score": 46,
    "centroid_lat": -18.453,
    "centroid_lng": 133.5
  },
  {
    "id": "104",
    "name": "Coffs Harbour - Grafton",
    "state_code": "NSW",
    "type": "sa4",
    "opportunity_score": 45,
    "centroid_lat": -29.7675,
    "centroid_lng": 152.7815
  },
  {
    "id": "797",
    "name": "Migratory - Offshore - Shipping (NT)",
    "state_code": "NT",
    "type": "sa4",
    "opportunity_score": 45,
    "centroid_lat": 0,
    "centroid_lng": 0
  },
  {
    "id": "901",
    "name": "Other Territories",
    "state_code": "OT",
    "type": "sa4",
    "opportunity_score": 45,
    "centroid_lat": -22.8075,
    "centroid_lng": 132.407
  },
  {
    "id": "406",
    "name": "South Australia - Outback",
    "state_code": "SA",
    "type": "sa4",
    "opportunity_score": 44,
    "centroid_lat": -30.668,
    "centroid_lng": 135.0025
  },
  {
    "id": "407",
    "name": "South Australia - South East",
    "state_code": "SA",
    "type": "sa4",
    "opportunity_score": 44,
    "centroid_lat": -35.932,
    "centroid_lng": 138.752
  },
  {
    "id": "108",
    "name": "Mid North Coast",
    "state_code": "NSW",
    "type": "sa4",
    "opportunity_score": 43,
    "centroid_lat": -31.5585,
    "centroid_lng": 155.256
  },
  {
    "id": "319",
    "name": "Wide Bay",
    "state_code": "QLD",
    "type": "sa4",
    "opportunity_score": 43,
    "centroid_lat": -25.67,
    "centroid_lng": 151.865
  },
  {
    "id": "597",
    "name": "Migratory - Offshore - Shipping (WA)",
    "state_code": "WA",
    "type": "sa4",
    "opportunity_score": 41,
    "centroid_lat": 0,
    "centroid_lng": 0
  },
  {
    "id": "197",
    "name": "Migratory - Offshore - Shipping (NSW)",
    "state_code": "NSW",
    "type": "sa4",
    "opportunity_score": 37,
    "centroid_lat": 0,
    "centroid_lng": 0
  },
  {
    "id": "199",
    "name": "No usual address (NSW)",
    "state_code": "NSW",
    "type": "sa4",
    "opportunity_score": 37,
    "centroid_lat": 0,
    "centroid_lng": 0
  },
  {
    "id": "297",
    "name": "Migratory - Offshore - Shipping (Vic.)",
    "state_code": "VIC",
    "type": "sa4",
    "opportunity_score": 37,
    "centroid_lat": 0,
    "centroid_lng": 0
  },
  {
    "id": "299",
    "name": "No usual address (Vic.)",
    "state_code": "VIC",
    "type": "sa4",
    "opportunity_score": 37,
    "centroid_lat": 0,
    "centroid_lng": 0
  },
  {
    "id": "399",
    "name": "No usual address (Qld)",
    "state_code": "QLD",
    "type": "sa4",
    "opportunity_score": 37,
    "centroid_lat": 0,
    "centroid_lng": 0
  },
  {
    "id": "499",
    "name": "No usual address (SA)",
    "state_code": "SA",
    "type": "sa4",
    "opportunity_score": 37,
    "centroid_lat": 0,
    "centroid_lng": 0
  },
  {
    "id": "599",
    "name": "No usual address (WA)",
    "state_code": "WA",
    "type": "sa4",
    "opportunity_score": 37,
    "centroid_lat": 0,
    "centroid_lng": 0
  },
  {
    "id": "699",
    "name": "No usual address (Tas.)",
    "state_code": "TAS",
    "type": "sa4",
    "opportunity_score": 37,
    "centroid_lat": 0,
    "centroid_lng": 0
  },
  {
    "id": "799",
    "name": "No usual address (NT)",
    "state_code": "NT",
    "type": "sa4",
    "opportunity_score": 37,
    "centroid_lat": 0,
    "centroid_lng": 0
  },
  {
    "id": "897",
    "name": "Migratory - Offshore - Shipping (ACT)",
    "state_code": "ACT",
    "type": "sa4",
    "opportunity_score": 37,
    "centroid_lat": 0,
    "centroid_lng": 0
  },
  {
    "id": "899",
    "name": "No usual address (ACT)",
    "state_code": "ACT",
    "type": "sa4",
    "opportunity_score": 37,
    "centroid_lat": 0,
    "centroid_lng": 0
  },
  {
    "id": "997",
    "name": "Migratory - Offshore - Shipping (OT)",
    "state_code": "OT",
    "type": "sa4",
    "opportunity_score": 37,
    "centroid_lat": 0,
    "centroid_lng": 0
  },
  {
    "id": "497",
    "name": "Migratory - Offshore - Shipping (SA)",
    "state_code": "SA",
    "type": "sa4",
    "opportunity_score": 36,
    "centroid_lat": 0,
    "centroid_lng": 0
  },
  {
    "id": "697",
    "name": "Migratory - Offshore - Shipping (Tas.)",
    "state_code": "TAS",
    "type": "sa4",
    "opportunity_score": 36,
    "centroid_lat": 0,
    "centroid_lng": 0
  },
  {
    "id": "999",
    "name": "No usual address (OT)",
    "state_code": "OT",
    "type": "sa4",
    "opportunity_score": 36,
    "centroid_lat": 0,
    "centroid_lng": 0
  }
]